{
  "generated_at": "2026-07-20T22:34:03.376Z",
  "policy": "海湾类地点使用可抵达入口或相邻度假村 POI；区域定位不伪装为精确位置。",
  "locations": [
    {
      "date": "2026年9月24日 · 抵达曼谷",
      "location_id": "d1-l1",
      "name": "素万那普机场 BKK",
      "latitude": 13.69,
      "longitude": 100.7501,
      "precision": "exact",
      "source": "OpenStreetMap / 公共 POI 复核",
      "note": "以公共地点或交通设施入口定位。",
      "navigation_query": "素万那普机场 BKK, Thailand"
    },
    {
      "date": "2026年9月24日 · 抵达曼谷",
      "location_id": "d1-l2",
      "name": "沙吞安静联排别墅，靠近Saint Louis轻轨站",
      "latitude": 13.7205,
      "longitude": 100.5272,
      "precision": "area",
      "source": "Airbnb 公开区域信息",
      "note": "订单确认后才会显示精确门牌。",
      "navigation_query": "沙吞安静联排别墅，靠近Saint Louis轻轨站, Thailand"
    },
    {
      "date": "2026年9月25日 · 曼谷老城与河边",
      "location_id": "d2-l1",
      "name": "沙吞安静联排别墅，靠近Saint Louis轻轨站",
      "latitude": 13.7205,
      "longitude": 100.5272,
      "precision": "area",
      "source": "Airbnb 公开区域信息",
      "note": "订单确认后才会显示精确门牌。",
      "navigation_query": "沙吞安静联排别墅，靠近Saint Louis轻轨站, Thailand"
    },
    {
      "date": "2026年9月25日 · 曼谷老城与河边",
      "location_id": "d2-l2",
      "name": "Saphan Taksin BTS / Sathorn Pier",
      "latitude": 13.7188,
      "longitude": 100.5143,
      "precision": "exact",
      "source": "OpenStreetMap / 公共 POI 复核",
      "note": "以公共地点或交通设施入口定位。",
      "navigation_query": "Saphan Taksin BTS / Sathorn Pier, Thailand"
    },
    {
      "date": "2026年9月25日 · 曼谷老城与河边",
      "location_id": "d2-l3",
      "name": "大皇宫",
      "latitude": 13.75,
      "longitude": 100.4913,
      "precision": "exact",
      "source": "OpenStreetMap / 公共 POI 复核",
      "note": "以公共地点或交通设施入口定位。",
      "navigation_query": "大皇宫, Thailand"
    },
    {
      "date": "2026年9月25日 · 曼谷老城与河边",
      "location_id": "d2-l4",
      "name": "卧佛寺 Wat Pho",
      "latitude": 13.7465,
      "longitude": 100.493,
      "precision": "exact",
      "source": "OpenStreetMap / 公共 POI 复核",
      "note": "以公共地点或交通设施入口定位。",
      "navigation_query": "卧佛寺 Wat Pho, Thailand"
    },
    {
      "date": "2026年9月25日 · 曼谷老城与河边",
      "location_id": "d2-l5",
      "name": "郑王庙 Wat Arun",
      "latitude": 13.7437,
      "longitude": 100.4889,
      "precision": "exact",
      "source": "OpenStreetMap / 公共 POI 复核",
      "note": "以公共地点或交通设施入口定位。",
      "navigation_query": "郑王庙 Wat Arun, Thailand"
    },
    {
      "date": "2026年9月26日 · Chatuchak 与 Ari",
      "location_id": "d3-l1",
      "name": "沙吞安静联排别墅，靠近Saint Louis轻轨站",
      "latitude": 13.7205,
      "longitude": 100.5272,
      "precision": "area",
      "source": "Airbnb 公开区域信息",
      "note": "订单确认后才会显示精确门牌。",
      "navigation_query": "沙吞安静联排别墅，靠近Saint Louis轻轨站, Thailand"
    },
    {
      "date": "2026年9月26日 · Chatuchak 与 Ari",
      "location_id": "d3-l2",
      "name": "乍都乍周末市场 Chatuchak",
      "latitude": 13.7999,
      "longitude": 100.5506,
      "precision": "exact",
      "source": "OpenStreetMap / 公共 POI 复核",
      "note": "以公共地点或交通设施入口定位。",
      "navigation_query": "乍都乍周末市场 Chatuchak, Thailand"
    },
    {
      "date": "2026年9月26日 · Chatuchak 与 Ari",
      "location_id": "d3-l3",
      "name": "Ari",
      "latitude": 13.7796,
      "longitude": 100.5447,
      "precision": "exact",
      "source": "OpenStreetMap / 公共 POI 复核",
      "note": "以公共地点或交通设施入口定位。",
      "navigation_query": "Ari, Thailand"
    },
    {
      "date": "2026年9月27日 · Lumphini / Siam",
      "location_id": "d4-l1",
      "name": "伦披尼公园 Lumphini Park",
      "latitude": 13.7316,
      "longitude": 100.5417,
      "precision": "exact",
      "source": "OpenStreetMap / 公共 POI 复核",
      "note": "以公共地点或交通设施入口定位。",
      "navigation_query": "伦披尼公园 Lumphini Park, Thailand"
    },
    {
      "date": "2026年9月27日 · Lumphini / Siam",
      "location_id": "d4-l2",
      "name": "Siam / Chit Lom",
      "latitude": 13.7462,
      "longitude": 100.5348,
      "precision": "exact",
      "source": "OpenStreetMap / 公共 POI 复核",
      "note": "以公共地点或交通设施入口定位。",
      "navigation_query": "Siam / Chit Lom, Thailand"
    },
    {
      "date": "2026年9月27日 · Lumphini / Siam",
      "location_id": "d4-l3",
      "name": "沙吞安静联排别墅，靠近Saint Louis轻轨站",
      "latitude": 13.7205,
      "longitude": 100.5272,
      "precision": "area",
      "source": "Airbnb 公开区域信息",
      "note": "订单确认后才会显示精确门牌。",
      "navigation_query": "沙吞安静联排别墅，靠近Saint Louis轻轨站, Thailand"
    },
    {
      "date": "2026年9月28日 · 曼谷 → 芭提雅",
      "location_id": "d5-l1",
      "name": "曼谷 → 芭提雅大巴集合点",
      "latitude": 13.7307,
      "longitude": 100.5418,
      "precision": "area",
      "source": "当前行程截图",
      "note": "上车点尚未确认，地图只表达曼谷市区出发区域。",
      "navigation_query": "曼谷 → 芭提雅大巴集合点, Thailand"
    },
    {
      "date": "2026年9月28日 · 曼谷 → 芭提雅",
      "location_id": "d5-l2",
      "name": "Best Beach Villa",
      "latitude": 12.944066,
      "longitude": 100.8867208,
      "precision": "exact",
      "source": "OpenStreetMap / 公共 POI 复核",
      "note": "以公共地点或交通设施入口定位。",
      "navigation_query": "Best Beach Villa, Thailand"
    },
    {
      "date": "2026年9月28日 · 曼谷 → 芭提雅",
      "location_id": "d5-l3",
      "name": "Pattaya Beach",
      "latitude": 12.9426,
      "longitude": 100.8871,
      "precision": "exact",
      "source": "OpenStreetMap / 公共 POI 复核",
      "note": "以公共地点或交通设施入口定位。",
      "navigation_query": "Pattaya Beach, Thailand"
    },
    {
      "date": "2026年9月28日 · 曼谷 → 芭提雅",
      "location_id": "d5-l4",
      "name": "Terminal 21 Pattaya",
      "latitude": 12.9498756,
      "longitude": 100.8897673,
      "precision": "exact",
      "source": "OpenStreetMap / 公共 POI 复核",
      "note": "以公共地点或交通设施入口定位。",
      "navigation_query": "Terminal 21 Pattaya, Thailand"
    },
    {
      "date": "2026年9月29日 · 芭提雅",
      "location_id": "d6-l1",
      "name": "Best Beach Villa",
      "latitude": 12.944066,
      "longitude": 100.8867208,
      "precision": "exact",
      "source": "OpenStreetMap / 公共 POI 复核",
      "note": "以公共地点或交通设施入口定位。",
      "navigation_query": "Best Beach Villa, Thailand"
    },
    {
      "date": "2026年9月29日 · 芭提雅",
      "location_id": "d6-l2",
      "name": "真理寺 Sanctuary of Truth",
      "latitude": 12.972777,
      "longitude": 100.8891503,
      "precision": "exact",
      "source": "OpenStreetMap / 公共 POI 复核",
      "note": "以公共地点或交通设施入口定位。",
      "navigation_query": "真理寺 Sanctuary of Truth, Thailand"
    },
    {
      "date": "2026年9月29日 · 芭提雅",
      "location_id": "d6-l3",
      "name": "Terminal 21 Pattaya",
      "latitude": 12.9498756,
      "longitude": 100.8897673,
      "precision": "exact",
      "source": "OpenStreetMap / 公共 POI 复核",
      "note": "以公共地点或交通设施入口定位。",
      "navigation_query": "Terminal 21 Pattaya, Thailand"
    },
    {
      "date": "2026年9月29日 · 芭提雅",
      "location_id": "d6-l4",
      "name": "Wong Amat Beach（COSI入口）",
      "latitude": 12.9587579,
      "longitude": 100.8876018,
      "precision": "landfall",
      "source": "COSI Pattaya Wong Amat Beach POI",
      "note": "以酒店旁可抵达入口定位。",
      "navigation_query": "Wong Amat Beach（COSI入口）, Thailand"
    },
    {
      "date": "2026年9月29日 · 芭提雅",
      "location_id": "d6-l5",
      "name": "Tiger Park Pattaya",
      "latitude": 12.885,
      "longitude": 100.8921,
      "precision": "exact",
      "source": "OpenStreetMap / 公共 POI 复核",
      "note": "以公共地点或交通设施入口定位。",
      "navigation_query": "Tiger Park Pattaya, Thailand"
    },
    {
      "date": "2026年9月30日 · 芭提雅 → 沙美岛",
      "location_id": "d7-l1",
      "name": "Best Beach Villa",
      "latitude": 12.944066,
      "longitude": 100.8867208,
      "precision": "exact",
      "source": "OpenStreetMap / 公共 POI 复核",
      "note": "以公共地点或交通设施入口定位。",
      "navigation_query": "Best Beach Villa, Thailand"
    },
    {
      "date": "2026年9月30日 · 芭提雅 → 沙美岛",
      "location_id": "d7-l2",
      "name": "班佩码头 Ban Phe Pier",
      "latitude": 12.627087,
      "longitude": 101.4385231,
      "precision": "exact",
      "source": "OpenStreetMap / 公共 POI 复核",
      "note": "以公共地点或交通设施入口定位。",
      "navigation_query": "班佩码头 Ban Phe Pier, Thailand"
    },
    {
      "date": "2026年9月30日 · 芭提雅 → 沙美岛",
      "location_id": "d7-l3",
      "name": "Na Dan Pier",
      "latitude": 12.5748563,
      "longitude": 101.4635254,
      "precision": "exact",
      "source": "OpenStreetMap / 公共 POI 复核",
      "note": "以公共地点或交通设施入口定位。",
      "navigation_query": "Na Dan Pier, Thailand"
    },
    {
      "date": "2026年9月30日 · 芭提雅 → 沙美岛",
      "location_id": "d7-l4",
      "name": "Larissa Samed Resort",
      "latitude": 12.5694651,
      "longitude": 101.4686256,
      "precision": "exact",
      "source": "OpenStreetMap / 公共 POI 复核",
      "note": "以公共地点或交通设施入口定位。",
      "navigation_query": "Larissa Samed Resort, Thailand"
    },
    {
      "date": "2026年10月1日 · 沙美岛",
      "location_id": "d8-l1",
      "name": "Larissa Samed Resort",
      "latitude": 12.5694651,
      "longitude": 101.4686256,
      "precision": "exact",
      "source": "OpenStreetMap / 公共 POI 复核",
      "note": "以公共地点或交通设施入口定位。",
      "navigation_query": "Larissa Samed Resort, Thailand"
    },
    {
      "date": "2026年10月1日 · 沙美岛",
      "location_id": "d8-l2",
      "name": "Sai Kaew Beach（度假村入口）",
      "latitude": 12.5689077,
      "longitude": 101.4669303,
      "precision": "landfall",
      "source": "Sai Kaew Beach Resort POI",
      "note": "以可抵达入口定位。",
      "navigation_query": "Sai Kaew Beach（度假村入口）, Thailand"
    },
    {
      "date": "2026年10月2日 · 沙美岛环岛",
      "location_id": "d9-l1",
      "name": "Larissa Samed Resort",
      "latitude": 12.5694651,
      "longitude": 101.4686256,
      "precision": "exact",
      "source": "OpenStreetMap / 公共 POI 复核",
      "note": "以公共地点或交通设施入口定位。",
      "navigation_query": "Larissa Samed Resort, Thailand"
    },
    {
      "date": "2026年10月2日 · 沙美岛环岛",
      "location_id": "d9-l2",
      "name": "Ao Wong Duean",
      "latitude": 12.55295,
      "longitude": 101.44971,
      "precision": "landfall",
      "source": "Vongdeuan Resort POI",
      "note": "以可抵达的度假村/海湾入口代替海湾中心。",
      "navigation_query": "Ao Wong Duean, Thailand"
    },
    {
      "date": "2026年10月2日 · 沙美岛环岛",
      "location_id": "d9-l3",
      "name": "Ao Thian",
      "latitude": 12.549694,
      "longitude": 101.449283,
      "precision": "landfall",
      "source": "Sangthian Beach Resort POI",
      "note": "以可抵达的度假村/海湾入口代替海湾中心。",
      "navigation_query": "Ao Thian, Thailand"
    },
    {
      "date": "2026年10月2日 · 沙美岛环岛",
      "location_id": "d9-l4",
      "name": "Ao Wai",
      "latitude": 12.5395,
      "longitude": 101.446,
      "precision": "landfall",
      "source": "Ao Wai 道路入口",
      "note": "以道路入口代替海湾水面中心。",
      "navigation_query": "Ao Wai, Thailand"
    },
    {
      "date": "2026年10月2日 · 沙美岛环岛",
      "location_id": "d9-l5",
      "name": "Ao Prao",
      "latitude": 12.5714,
      "longitude": 101.44917,
      "precision": "landfall",
      "source": "Ao Prao Resort POI",
      "note": "以度假村入口代替西岸海湾中心。",
      "navigation_query": "Ao Prao, Thailand"
    },
    {
      "date": "2026年10月3日 · 沙美岛天气触发日",
      "location_id": "d10-l1",
      "name": "Na Dan Pier",
      "latitude": 12.5748563,
      "longitude": 101.4635254,
      "precision": "exact",
      "source": "OpenStreetMap / 公共 POI 复核",
      "note": "以公共地点或交通设施入口定位。",
      "navigation_query": "Na Dan Pier, Thailand"
    },
    {
      "date": "2026年10月3日 · 沙美岛天气触发日",
      "location_id": "d10-l2",
      "name": "Larissa Samed Resort",
      "latitude": 12.5694651,
      "longitude": 101.4686256,
      "precision": "exact",
      "source": "OpenStreetMap / 公共 POI 复核",
      "note": "以公共地点或交通设施入口定位。",
      "navigation_query": "Larissa Samed Resort, Thailand"
    },
    {
      "date": "2026年10月4日 · 沙美岛 → 曼谷",
      "location_id": "d11-l1",
      "name": "Na Dan Pier",
      "latitude": 12.5748563,
      "longitude": 101.4635254,
      "precision": "exact",
      "source": "OpenStreetMap / 公共 POI 复核",
      "note": "以公共地点或交通设施入口定位。",
      "navigation_query": "Na Dan Pier, Thailand"
    },
    {
      "date": "2026年10月4日 · 沙美岛 → 曼谷",
      "location_id": "d11-l2",
      "name": "班佩码头 Ban Phe Pier",
      "latitude": 12.627087,
      "longitude": 101.4385231,
      "precision": "exact",
      "source": "OpenStreetMap / 公共 POI 复核",
      "note": "以公共地点或交通设施入口定位。",
      "navigation_query": "班佩码头 Ban Phe Pier, Thailand"
    },
    {
      "date": "2026年10月4日 · 沙美岛 → 曼谷",
      "location_id": "d11-l3",
      "name": "True Siam Rangnam Hotel",
      "latitude": 13.7586877,
      "longitude": 100.5397268,
      "precision": "exact",
      "source": "OpenStreetMap / 公共 POI 复核",
      "note": "以公共地点或交通设施入口定位。",
      "navigation_query": "True Siam Rangnam Hotel, Thailand"
    },
    {
      "date": "2026年10月4日 · 沙美岛 → 曼谷",
      "location_id": "d11-l4",
      "name": "King Power Rangnam / Pratunam",
      "latitude": 13.7563,
      "longitude": 100.5396,
      "precision": "exact",
      "source": "OpenStreetMap / 公共 POI 复核",
      "note": "以公共地点或交通设施入口定位。",
      "navigation_query": "King Power Rangnam / Pratunam, Thailand"
    },
    {
      "date": "2026年10月5日 · 曼谷 → 武汉",
      "location_id": "d12-l1",
      "name": "True Siam Rangnam Hotel",
      "latitude": 13.7586877,
      "longitude": 100.5397268,
      "precision": "exact",
      "source": "OpenStreetMap / 公共 POI 复核",
      "note": "以公共地点或交通设施入口定位。",
      "navigation_query": "True Siam Rangnam Hotel, Thailand"
    },
    {
      "date": "2026年10月5日 · 曼谷 → 武汉",
      "location_id": "d12-l2",
      "name": "Ratchaprarop Airport Rail Link",
      "latitude": 13.7551,
      "longitude": 100.5423,
      "precision": "exact",
      "source": "OpenStreetMap / 公共 POI 复核",
      "note": "以公共地点或交通设施入口定位。",
      "navigation_query": "Ratchaprarop Airport Rail Link, Thailand"
    },
    {
      "date": "2026年10月5日 · 曼谷 → 武汉",
      "location_id": "d12-l3",
      "name": "素万那普机场 BKK",
      "latitude": 13.69,
      "longitude": 100.7501,
      "precision": "exact",
      "source": "OpenStreetMap / 公共 POI 复核",
      "note": "以公共地点或交通设施入口定位。",
      "navigation_query": "素万那普机场 BKK, Thailand"
    }
  ]
}
